[
	{
		"Name": "大心新泰式麵食台中勤美店",
		"Address": "臺中市西區公益路68號",
		"Tel": "04-23102156",
		"Lat": 24.15128800000,
		"Lon": 120.66386500000
	},
	{
		"Name": "大心新泰式麵食台北三越天母店",
		"Address": "臺北市士林區忠誠路二段200號3樓",
		"Tel": "02-28723101",
		"Lat": 25.11706000000,
		"Lon": 121.53401700000
	},
	{
		"Name": "大心新泰式麵食台北三越南西店",
		"Address": "臺北市中山區南京西路14號",
		"Tel": "02-25678756",
		"Lat": 25.05241300000,
		"Lon": 121.52064500000
	},
	{
		"Name": "大心新泰式麵食台北三越站前店",
		"Address": "臺北市中正區忠孝西路一段66號",
		"Tel": "02-23615058",
		"Lat": 25.04620200000,
		"Lon": 121.51528700000
	},
	{
		"Name": "大心新泰式麵食台北松山機場店",
		"Address": "臺北市松山區敦化北路340之9號2樓",
		"Tel": "02-27196998",
		"Lat": 25.06363000000,
		"Lon": 121.55188400000
	},
	{
		"Name": "大心新泰式麵食台北信義威秀店",
		"Address": "臺北市信義區松壽路20號2F",
		"Tel": "02-27580558",
		"Lat": 25.03562100000,
		"Lon": 121.56738600000
	},
	{
		"Name": "大心新泰式麵食台北統一時代店",
		"Address": "臺北市信義區忠孝東路五段8號B2",
		"Tel": "02-27296806",
		"Lat": 25.04084700000,
		"Lon": 121.56539800000
	},
	{
		"Name": "大心新泰式麵食台北微風車站店",
		"Address": "臺北市中正區北平西路3號2樓",
		"Tel": "02-23610989",
		"Lat": 25.04715300000,
		"Lon": 121.51703500000
	},
	{
		"Name": "大心新泰式麵食台南三越西門店",
		"Address": "臺南市中西區西門路一段658號",
		"Tel": "06-3031279",
		"Lat": 22.98674900000,
		"Lon": 120.19888500000
	},
	{
		"Name": "大心新泰式麵食高雄三越三多店",
		"Address": "高雄市前鎮區三多三路213號",
		"Tel": "07-3320868",
		"Lat": 22.61443100000,
		"Lon": 120.30658400000
	},
	{
		"Name": "大心新泰式麵食高雄三越左營店",
		"Address": "高雄市左營區高鐵路115號3樓",
		"Tel": "07-3412278",
		"Lat": 22.68749800000,
		"Lon": 120.30914600000
	},
	{
		"Name": "大心新泰式麵食高雄漢神巨蛋店",
		"Address": "高雄市左營區博愛二路777號B1",
		"Tel": "07-5502028",
		"Lat": 22.67013700000,
		"Lon": 120.30305300000
	},
	{
		"Name": "大心新泰式麵食嘉義秀泰店",
		"Address": "嘉義市西區文化路299號1樓",
		"Tel": "05-2223323",
		"Lat": 23.48529400000,
		"Lon": 120.44764700000
	},
	{
		"Name": "大心新泰式麵食台中三越店",
		"Address": "臺中市西屯區台灣大道三段301號12樓",
		"Tel": "04-22598228",
		"Lat": 24.16522800000,
		"Lon": 120.64373000000
	},
	{
		"Name": "大心新泰式麵食台中中友店",
		"Address": "臺中市北區三民路三段161號B棟B2F",
		"Tel": "04-22216662",
		"Lat": 24.15206300000,
		"Lon": 120.68473300000
	},
	{
		"Name": "大心新泰式麵食台中秀泰店",
		"Address": "臺中市東區南京路76號2F",
		"Tel": "04-22118187",
		"Lat": 24.14036000000,
		"Lon": 120.68976500000
	},
	{
		"Name": "大心新泰式麵食台中麗寶店",
		"Address": "臺中市后里區福容路201號3F",
		"Tel": "04-25585352",
		"Lat": 24.32330400000,
		"Lon": 120.69678900000
	},
	{
		"Name": "大心新泰式麵食宜蘭新月店",
		"Address": "宜蘭縣宜蘭市民權路二段38巷6號4樓",
		"Tel": "03-9361377",
		"Lat": 24.75421100000,
		"Lon": 121.75077200000
	},
	{
		"Name": "大心新泰式麵食台北微風南京店",
		"Address": "臺北市松山區南京東路三段337號",
		"Tel": "02-27198369",
		"Lat": 25.05194400000,
		"Lon": 121.54797600000
	},
	{
		"Name": "大心新泰式麵食台北誠品松菸店",
		"Address": "臺北市信義區菸廠路88號",
		"Tel": "02-66367288",
		"Lat": 25.04456500000,
		"Lon": 121.56144500000
	},
	{
		"Name": "大心新泰式麵食嘉義三越店",
		"Address": "嘉義市西區垂楊路726號",
		"Tel": "05-2220377",
		"Lat": 23.47328000000,
		"Lon": 120.44119000000
	}
]
